{
  "packId": "cn_hong_kong",
  "name": "Hong Kong",
  "country": "China",
  "flag": "🇭🇰",
  "version": "1.1",
  "description": "Comprehensive landmarks of Hong Kong – vibrant culture, stunning nature, and modern wonders",
  "landmarks": [
    {
      "name": "Victoria Peak",
      "latitude": 22.2758,
      "longitude": 114.1455,
      "picture": "victoria_peak",
      "rating": 4.8,
      "category": "Viewpoint",
      "city": "Hong Kong",
      "state": "Hong Kong",
      "country": "China"
    },
    {
      "name": "Tian Tan Buddha (Big Buddha)",
      "latitude": 22.2538,
      "longitude": 113.9047,
      "picture": "big_buddha",
      "rating": 4.7,
      "category": "Monument",
      "city": "Lantau Island",
      "state": "Hong Kong",
      "country": "China"
    },
    {
      "name": "Star Ferry",
      "latitude": 22.2864,
      "longitude": 114.1581,
      "picture": "star_ferry",
      "rating": 4.6,
      "category": "Attraction",
      "city": "Hong Kong",
      "state": "Hong Kong",
      "country": "China"
    },
    {
      "name": "Avenue of Stars",
      "latitude": 22.2931,
      "longitude": 114.1700,
      "picture": "avenue_of_stars",
      "rating": 4.5,
      "category": "Attraction",
      "city": "Hong Kong",
      "state": "Hong Kong",
      "country": "China"
    },
    {
      "name": "Hong Kong Disneyland",
      "latitude": 22.3130,
      "longitude": 114.0413,
      "picture": "disneyland_hk",
      "rating": 4.6,
      "category": "Amusement Park",
      "city": "Lantau Island",
      "state": "Hong Kong",
      "country": "China"
    },
    {
      "name": "Ocean Park Hong Kong",
      "latitude": 22.2467,
      "longitude": 114.1744,
      "picture": "ocean_park",
      "rating": 4.5,
      "category": "Amusement Park",
      "city": "Hong Kong",
      "state": "Hong Kong",
      "country": "China"
    },
    {
      "name": "Man Mo Temple",
      "latitude": 22.2840,
      "longitude": 114.1500,
      "picture": "man_mo_temple",
      "rating": 4.4,
      "category": "Religious",
      "city": "Hong Kong",
      "state": "Hong Kong",
      "country": "China"
    },
    {
      "name": "Wong Tai Sin Temple",
      "latitude": 22.3421,
      "longitude": 114.1936,
      "picture": "wong_tai_sin",
      "rating": 4.5,
      "category": "Religious",
      "city": "Hong Kong",
      "state": "Hong Kong",
      "country": "China"
    },
    {
      "name": "Nan Lian Garden",
      "latitude": 22.3356,
      "longitude": 114.2036,
      "picture": "nan_lian_garden",
      "rating": 4.7,
      "category": "Park",
      "city": "Hong Kong",
      "state": "Hong Kong",
      "country": "China"
    },
    {
      "name": "Kowloon Walled City Park",
      "latitude": 22.3325,
      "longitude": 114.1903,
      "picture": "kowloon_walled_city_park",
      "rating": 4.6,
      "category": "Historical",
      "city": "Hong Kong",
      "state": "Hong Kong",
      "country": "China"
    },
    {
      "name": "Hong Kong Museum of History",
      "latitude": 22.3017,
      "longitude": 114.1773,
      "picture": "hk_history_museum",
      "rating": 4.5,
      "category": "Museum",
      "city": "Hong Kong",
      "state": "Hong Kong",
      "country": "China"
    },
    {
      "name": "Hong Kong Space Museum",
      "latitude": 22.2942,
      "longitude": 114.1709,
      "picture": "hk_space_museum",
      "rating": 4.4,
      "category": "Museum",
      "city": "Hong Kong",
      "state": "Hong Kong",
      "country": "China"
    },
    {
      "name": "Tsim Sha Tsui Clock Tower",
      "latitude": 22.2936,
      "longitude": 114.1690,
      "picture": "tsim_sha_tsui_clock",
      "rating": 4.3,
      "category": "Historical",
      "city": "Hong Kong",
      "state": "Hong Kong",
      "country": "China"
    },
    {
      "name": "Ten Thousand Buddhas Monastery",
      "latitude": 22.3870,
      "longitude": 114.1846,
      "picture": "ten_thousand_buddhas",
      "rating": 4.5,
      "category": "Religious",
      "city": "Hong Kong",
      "state": "Hong Kong",
      "country": "China"
    },
    {
      "name": "Dragon's Back Trail",
      "latitude": 22.2430,
      "longitude": 114.2360,
      "picture": "dragons_back",
      "rating": 4.8,
      "category": "Natural",
      "city": "Hong Kong",
      "state": "Hong Kong",
      "country": "China"
    },
    {
      "name": "Tai O Fishing Village",
      "latitude": 22.2561,
      "longitude": 113.8550,
      "picture": "tai_o",
      "rating": 4.4,
      "category": "Cultural",
      "city": "Lantau Island",
      "state": "Hong Kong",
      "country": "China"
    },
    {
      "name": "Lantau Trail",
      "latitude": 22.2700,
      "longitude": 113.9300,
      "picture": "lantau_trail",
      "rating": 4.6,
      "category": "Natural",
      "city": "Lantau Island",
      "state": "Hong Kong",
      "country": "China"
    },
    {
      "name": "Repulse Bay Beach",
      "latitude": 22.2415,
      "longitude": 114.1968,
      "picture": "repulse_bay",
      "rating": 4.5,
      "category": "Beach",
      "city": "Hong Kong",
      "state": "Hong Kong",
      "country": "China"
    },
    {
      "name": "Stanley Market",
      "latitude": 22.2182,
      "longitude": 114.2110,
      "picture": "stanley_market",
      "rating": 4.4,
      "category": "Shopping",
      "city": "Hong Kong",
      "state": "Hong Kong",
      "country": "China"
    },
    {
      "name": "Temple Street Night Market",
      "latitude": 22.3094,
      "longitude": 114.1701,
      "picture": "temple_street_market",
      "rating": 4.3,
      "category": "Shopping",
      "city": "Hong Kong",
      "state": "Hong Kong",
      "country": "China"
    },
    {
      "name": "Hong Kong Park",
      "latitude": 22.2773,
      "longitude": 114.1632,
      "picture": "hk_park",
      "rating": 4.5,
      "category": "Park",
      "city": "Hong Kong",
      "state": "Hong Kong",
      "country": "China"
    },
    {
      "name": "Victoria Harbour",
      "latitude": 22.2850,
      "longitude": 114.1600,
      "picture": "victoria_harbour",
      "rating": 4.8,
      "category": "Natural",
      "city": "Hong Kong",
      "state": "Hong Kong",
      "country": "China"
    },
    {
      "name": "Bank of China Tower",
      "latitude": 22.2791,
      "longitude": 114.1619,
      "picture": "boc_tower",
      "rating": 4.4,
      "category": "Architecture",
      "city": "Hong Kong",
      "state": "Hong Kong",
      "country": "China"
    },
    {
      "name": "International Commerce Centre (ICC)",
      "latitude": 22.3038,
      "longitude": 114.1601,
      "picture": "icc",
      "rating": 4.5,
      "category": "Architecture",
      "city": "Hong Kong",
      "state": "Hong Kong",
      "country": "China"
    },
    {
      "name": "Mong Kok District",
      "latitude": 22.3190,
      "longitude": 114.1690,
      "picture": "mong_kok",
      "rating": 4.3,
      "category": "Shopping",
      "city": "Hong Kong",
      "state": "Hong Kong",
      "country": "China"
    },
    {
      "name": "Hong Kong Wetland Park",
      "latitude": 22.4670,
      "longitude": 114.0040,
      "picture": "wetland_park",
      "rating": 4.4,
      "category": "Park",
      "city": "Hong Kong",
      "state": "Hong Kong",
      "country": "China"
    },
    {
      "name": "Cheung Chau Island",
      "latitude": 22.2105,
      "longitude": 114.0300,
      "picture": "cheung_chau",
      "rating": 4.5,
      "category": "Island",
      "city": "Cheung Chau",
      "state": "Hong Kong",
      "country": "China"
    },
    {
      "name": "Po Lin Monastery",
      "latitude": 22.2540,
      "longitude": 113.9041,
      "picture": "po_lin_monastery",
      "rating": 4.6,
      "category": "Religious",
      "city": "Lantau Island",
      "state": "Hong Kong",
      "country": "China"
    },
    {
      "name": "Ngong Ping 360",
      "latitude": 22.2882,
      "longitude": 113.9430,
      "picture": "ngong_ping_360",
      "rating": 4.6,
      "category": "Attraction",
      "city": "Lantau Island",
      "state": "Hong Kong",
      "country": "China"
    },
    {
      "name": "Sai Kung Peninsula",
      "latitude": 22.3814,
      "longitude": 114.2705,
      "picture": "sai_kung",
      "rating": 4.7,
      "category": "Natural",
      "city": "Sai Kung",
      "state": "Hong Kong",
      "country": "China"
    },
    {
      "name": "Shek O Beach",
      "latitude": 22.2350,
      "longitude": 114.2513,
      "picture": "shek_o",
      "rating": 4.5,
      "category": "Beach",
      "city": "Hong Kong",
      "state": "Hong Kong",
      "country": "China"
    },
    {
      "name": "Big Wave Bay",
      "latitude": 22.2379,
      "longitude": 114.2474,
      "picture": "big_wave_bay",
      "rating": 4.4,
      "category": "Beach",
      "city": "Hong Kong",
      "state": "Hong Kong",
      "country": "China"
    },
    {
      "name": "Hong Kong Observatory",
      "latitude": 22.3023,
      "longitude": 114.1744,
      "picture": "hk_observatory",
      "rating": 4.2,
      "category": "Historical",
      "city": "Hong Kong",
      "state": "Hong Kong",
      "country": "China"
    },
    {
      "name": "Dr. Sun Yat-sen Museum",
      "latitude": 22.2810,
      "longitude": 114.1504,
      "picture": "sun_yat_sen_museum",
      "rating": 4.4,
      "category": "Museum",
      "city": "Hong Kong",
      "state": "Hong Kong",
      "country": "China"
    },
    {
      "name": "Hong Kong Heritage Museum",
      "latitude": 22.3770,
      "longitude": 114.1854,
      "picture": "heritage_museum",
      "rating": 4.5,
      "category": "Museum",
      "city": "Hong Kong",
      "state": "Hong Kong",
      "country": "China"
    },
    {
      "name": "Flagstaff House Museum of Tea Ware",
      "latitude": 22.2783,
      "longitude": 114.1643,
      "picture": "flagstaff_house",
      "rating": 4.4,
      "category": "Museum",
      "city": "Hong Kong",
      "state": "Hong Kong",
      "country": "China"
    },
    {
      "name": "Hong Kong Arts Centre",
      "latitude": 22.2797,
      "longitude": 114.1684,
      "picture": "arts_centre",
      "rating": 4.4,
      "category": "Cultural",
      "city": "Hong Kong",
      "state": "Hong Kong",
      "country": "China"
    },
    {
      "name": "Hong Kong Cultural Centre",
      "latitude": 22.2938,
      "longitude": 114.1698,
      "picture": "cultural_centre",
      "rating": 4.5,
      "category": "Cultural",
      "city": "Hong Kong",
      "state": "Hong Kong",
      "country": "China"
    },
    {
      "name": "Kowloon Park",
      "latitude": 22.3033,
      "longitude": 114.1700,
      "picture": "kowloon_park",
      "rating": 4.4,
      "category": "Park",
      "city": "Hong Kong",
      "state": "Hong Kong",
      "country": "China"
    },
    {
      "name": "Lai Chi Kok Park",
      "latitude": 22.3359,
      "longitude": 114.1476,
      "picture": "lai_chi_kok_park",
      "rating": 4.3,
      "category": "Park",
      "city": "Hong Kong",
      "state": "Hong Kong",
      "country": "China"
    },
    {
      "name": "Tsing Yi Park",
      "latitude": 22.3557,
      "longitude": 114.1040,
      "picture": "tsing_yi_park",
      "rating": 4.3,
      "category": "Park",
      "city": "Hong Kong",
      "state": "Hong Kong",
      "country": "China"
    },
    {
      "name": "Sha Tin Park",
      "latitude": 22.3823,
      "longitude": 114.1897,
      "picture": "sha_tin_park",
      "rating": 4.4,
      "category": "Park",
      "city": "Hong Kong",
      "state": "Hong Kong",
      "country": "China"
    },
    {
      "name": "Tai Po Waterfront Park",
      "latitude": 22.4493,
      "longitude": 114.1769,
      "picture": "tai_po_park",
      "rating": 4.5,
      "category": "Park",
      "city": "Hong Kong",
      "state": "Hong Kong",
      "country": "China"
    },
    {
      "name": "Ma On Shan Park",
      "latitude": 22.4178,
      "longitude": 114.2323,
      "picture": "ma_on_shan_park",
      "rating": 4.4,
      "category": "Park",
      "city": "Hong Kong",
      "state": "Hong Kong",
      "country": "China"
    },
    {
      "name": "Lok Ma Chau Lookout",
      "latitude": 22.5060,
      "longitude": 114.0703,
      "picture": "lok_ma_chau",
      "rating": 4.2,
      "category": "Viewpoint",
      "city": "Hong Kong",
      "state": "Hong Kong",
      "country": "China"
    },
    {
      "name": "Hong Kong Geopark (Sai Kung)",
      "latitude": 22.3980,
      "longitude": 114.3230,
      "picture": "geopark",
      "rating": 4.7,
      "category": "Natural",
      "city": "Sai Kung",
      "state": "Hong Kong",
      "country": "China"
    },
    {
      "name": "Lamma Island",
      "latitude": 22.2082,
      "longitude": 114.1245,
      "picture": "lamma_island",
      "rating": 4.5,
      "category": "Island",
      "city": "Lamma Island",
      "state": "Hong Kong",
      "country": "China"
    },
    {
      "name": "Peng Chau Island",
      "latitude": 22.2847,
      "longitude": 114.0380,
      "picture": "peng_chau",
      "rating": 4.1,
      "category": "Island",
      "city": "Peng Chau",
      "state": "Hong Kong",
      "country": "China"
    },
    {
      "name": "Tap Mun (Grass Island)",
      "latitude": 22.4822,
      "longitude": 114.3600,
      "picture": "tap_mun",
      "rating": 4.6,
      "category": "Island",
      "city": "Tap Mun",
      "state": "Hong Kong",
      "country": "China"
    },
    {
      "name": "Sharp Island (Kiu Tsui)",
      "latitude": 22.3700,
      "longitude": 114.2960,
      "picture": "sharp_island",
      "rating": 4.5,
      "category": "Island",
      "city": "Sai Kung",
      "state": "Hong Kong",
      "country": "China"
    },
    {
      "name": "Tung Chung Fort",
      "latitude": 22.2800,
      "longitude": 113.9400,
      "picture": "tung_chung_fort",
      "rating": 4.0,
      "category": "Historical",
      "city": "Lantau Island",
      "state": "Hong Kong",
      "country": "China"
    },
    {
      "name": "St. John's Cathedral",
      "latitude": 22.2786,
      "longitude": 114.1595,
      "picture": "st_johns_cathedral",
      "rating": 4.5,
      "category": "Religious",
      "city": "Hong Kong",
      "state": "Hong Kong",
      "country": "China"
    },
    {
      "name": "Chi Lin Nunnery",
      "latitude": 22.3350,
      "longitude": 114.2035,
      "picture": "chi_lin_nunnery",
      "rating": 4.7,
      "category": "Religious",
      "city": "Hong Kong",
      "state": "Hong Kong",
      "country": "China"
    },
    {
      "name": "Hung Hom Godown",
      "latitude": 22.3063,
      "longitude": 114.1849,
      "picture": "hung_hom_godown",
      "rating": 3.8,
      "category": "Historical",
      "city": "Hong Kong",
      "state": "Hong Kong",
      "country": "China"
    },
    {
      "name": "Western Market",
      "latitude": 22.2869,
      "longitude": 114.1518,
      "picture": "western_market",
      "rating": 4.2,
      "category": "Shopping",
      "city": "Hong Kong",
      "state": "Hong Kong",
      "country": "China"
    },
    {
      "name": "Central Market",
      "latitude": 22.2840,
      "longitude": 114.1549,
      "picture": "central_market",
      "rating": 4.3,
      "category": "Shopping",
      "city": "Hong Kong",
      "state": "Hong Kong",
      "country": "China"
    },
    {
      "name": "Ladies' Market (Tung Choi Street)",
      "latitude": 22.3183,
      "longitude": 114.1696,
      "picture": "ladies_market",
      "rating": 4.1,
      "category": "Shopping",
      "city": "Hong Kong",
      "state": "Hong Kong",
      "country": "China"
    },
    {
      "name": "Fa Yuen Street Market",
      "latitude": 22.3207,
      "longitude": 114.1691,
      "picture": "fa_yuen_street_market",
      "rating": 4.0,
      "category": "Shopping",
      "city": "Hong Kong",
      "state": "Hong Kong",
      "country": "China"
    },
    {
      "name": "Cat Street (Upper Lascar Row)",
      "latitude": 22.2845,
      "longitude": 114.1494,
      "picture": "cat_street",
      "rating": 4.2,
      "category": "Shopping",
      "city": "Hong Kong",
      "state": "Hong Kong",
      "country": "China"
    },
    {
      "name": "Goldfish Market (Tung Choi Street)",
      "latitude": 22.3188,
      "longitude": 114.1700,
      "picture": "goldfish_market",
      "rating": 4.3,
      "category": "Shopping",
      "city": "Hong Kong",
      "state": "Hong Kong",
      "country": "China"
    },
    {
      "name": "Bird Garden (Yuen Po Street)",
      "latitude": 22.3225,
      "longitude": 114.1722,
      "picture": "bird_garden",
      "rating": 4.2,
      "category": "Shopping",
      "city": "Hong Kong",
      "state": "Hong Kong",
      "country": "China"
    },
    {
      "name": "Flower Market Road",
      "latitude": 22.3213,
      "longitude": 114.1722,
      "picture": "flower_market",
      "rating": 4.4,
      "category": "Shopping",
      "city": "Hong Kong",
      "state": "Hong Kong",
      "country": "China"
    },
    {
      "name": "Sham Shui Po Fabric Market",
      "latitude": 22.3310,
      "longitude": 114.1623,
      "picture": "sham_shui_po_fabric_market",
      "rating": 4.1,
      "category": "Shopping",
      "city": "Hong Kong",
      "state": "Hong Kong",
      "country": "China"
    },
    {
      "name": "Apliu Street Flea Market",
      "latitude": 22.3311,
      "longitude": 114.1620,
      "picture": "apliu_street_market",
      "rating": 4.2,
      "category": "Shopping",
      "city": "Hong Kong",
      "state": "Hong Kong",
      "country": "China"
    },
    {
      "name": "Hong Kong Convention and Exhibition Centre",
      "latitude": 22.2832,
      "longitude": 114.1735,
      "picture": "hkcwc",
      "rating": 4.5,
      "category": "Architecture",
      "city": "Hong Kong",
      "state": "Hong Kong",
      "country": "China"
    },
    {
      "name": "AsiaWorld-Expo",
      "latitude": 22.3215,
      "longitude": 113.9400,
      "picture": "asiaworld_expo",
      "rating": 4.1,
      "category": "Architecture",
      "city": "Lantau Island",
      "state": "Hong Kong",
      "country": "China"
    },
    {
      "name": "Hong Kong Coliseum",
      "latitude": 22.3025,
      "longitude": 114.1825,
      "picture": "hong_kong_coliseum",
      "rating": 4.3,
      "category": "Architecture",
      "city": "Hong Kong",
      "state": "Hong Kong",
      "country": "China"
    },
    {
      "name": "Tamar Park",
      "latitude": 22.2811,
      "longitude": 114.1661,
      "picture": "tamar_park",
      "rating": 4.4,
      "category": "Park",
      "city": "Hong Kong",
      "state": "Hong Kong",
      "country": "China"
    },
    {
      "name": "Quarry Bay Park",
      "latitude": 22.2875,
      "longitude": 114.2133,
      "picture": "quarry_bay_park",
      "rating": 4.4,
      "category": "Park",
      "city": "Hong Kong",
      "state": "Hong Kong",
      "country": "China"
    },
    {
      "name": "Victoria Park",
      "latitude": 22.2825,
      "longitude": 114.1891,
      "picture": "victoria_park",
      "rating": 4.5,
      "category": "Park",
      "city": "Hong Kong",
      "state": "Hong Kong",
      "country": "China"
    },
    {
      "name": "Chai Wan Park",
      "latitude": 22.2637,
      "longitude": 114.2405,
      "picture": "chai_wan_park",
      "rating": 4.2,
      "category": "Park",
      "city": "Hong Kong",
      "state": "Hong Kong",
      "country": "China"
    },
    {
      "name": "Tsang Tsui Butterfly Garden",
      "latitude": 22.4623,
      "longitude": 114.0032,
      "picture": "butterfly_garden",
      "rating": 4.3,
      "category": "Park",
      "city": "Hong Kong",
      "state": "Hong Kong",
      "country": "China"
    },
    {
      "name": "Ho Pui Reservoir",
      "latitude": 22.3375,
      "longitude": 114.0300,
      "picture": "ho_pui_reservoir",
      "rating": 4.0,
      "category": "Natural",
      "city": "Hong Kong",
      "state": "Hong Kong",
      "country": "China"
    },
    {
      "name": "High Island Reservoir",
      "latitude": 22.4200,
      "longitude": 114.3500,
      "picture": "high_island_reservoir",
      "rating": 4.5,
      "category": "Natural",
      "city": "Sai Kung",
      "state": "Hong Kong",
      "country": "China"
    },
    {
      "name": "Shing Mun Reservoir",
      "latitude": 22.3750,
      "longitude": 114.1430,
      "picture": "shing_mun_reservoir",
      "rating": 4.3,
      "category": "Natural",
      "city": "Hong Kong",
      "state": "Hong Kong",
      "country": "China"
    },
    {
      "name": "Plover Cove Reservoir",
      "latitude": 22.4580,
      "longitude": 114.2650,
      "picture": "plover_cove_reservoir",
      "rating": 4.4,
      "category": "Natural",
      "city": "Hong Kong",
      "state": "Hong Kong",
      "country": "China"
    },
    {
      "name": "Tai Lam Chung Reservoir",
      "latitude": 22.3850,
      "longitude": 114.0800,
      "picture": "tai_lam_chung_reservoir",
      "rating": 4.2,
      "category": "Natural",
      "city": "Hong Kong",
      "state": "Hong Kong",
      "country": "China"
    },
    {
      "name": "Lion Rock",
      "latitude": 22.3470,
      "longitude": 114.1860,
      "picture": "lion_rock",
      "rating": 4.6,
      "category": "Natural",
      "city": "Hong Kong",
      "state": "Hong Kong",
      "country": "China"
    },
    {
      "name": "Amah Rock",
      "latitude": 22.3580,
      "longitude": 114.1800,
      "picture": "amah_rock",
      "rating": 4.3,
      "category": "Natural",
      "city": "Hong Kong",
      "state": "Hong Kong",
      "country": "China"
    },
    {
      "name": "Ping Shan Heritage Trail",
      "latitude": 22.4450,
      "longitude": 114.0060,
      "picture": "ping_shan_heritage",
      "rating": 4.4,
      "category": "Historical",
      "city": "Hong Kong",
      "state": "Hong Kong",
      "country": "China"
    },
    {
      "name": "Lung Yeuk Tau Heritage Trail",
      "latitude": 22.5090,
      "longitude": 114.1480,
      "picture": "lung_yeuk_tau_heritage",
      "rating": 4.3,
      "category": "Historical",
      "city": "Hong Kong",
      "state": "Hong Kong",
      "country": "China"
    },
    {
      "name": "Sam Tung Uk Museum",
      "latitude": 22.3730,
      "longitude": 114.1200,
      "picture": "sam_tung_uk_museum",
      "rating": 4.3,
      "category": "Museum",
      "city": "Hong Kong",
      "state": "Hong Kong",
      "country": "China"
    },
    {
      "name": "Hong Kong Railway Museum",
      "latitude": 22.4510,
      "longitude": 114.1680,
      "picture": "hk_railway_museum",
      "rating": 4.4,
      "category": "Museum",
      "city": "Hong Kong",
      "state": "Hong Kong",
      "country": "China"
    },
    {
      "name": "Hong Kong Science Museum",
      "latitude": 22.3008,
      "longitude": 114.1771,
      "picture": "hk_science_museum",
      "rating": 4.5,
      "category": "Museum",
      "city": "Hong Kong",
      "state": "Hong Kong",
      "country": "China"
    },
    {
      "name": "Hong Kong Museum of Art",
      "latitude": 22.2934,
      "longitude": 114.1716,
      "picture": "hk_museum_of_art",
      "rating": 4.5,
      "category": "Museum",
      "city": "Hong Kong",
      "state": "Hong Kong",
      "country": "China"
    },
    {
      "name": "Hong Kong Maritime Museum",
      "latitude": 22.2867,
      "longitude": 114.1595,
      "picture": "maritime_museum",
      "rating": 4.4,
      "category": "Museum",
      "city": "Hong Kong",
      "state": "Hong Kong",
      "country": "China"
    },
    {
      "name": "Police Museum",
      "latitude": 22.2643,
      "longitude": 114.2353,
      "picture": "police_museum",
      "rating": 4.2,
      "category": "Museum",
      "city": "Hong Kong",
      "state": "Hong Kong",
      "country": "China"
    },
    {
      "name": "Hong Kong Museum of Coastal Defence",
      "latitude": 22.2833,
      "longitude": 114.2300,
      "picture": "coastal_defence_museum",
      "rating": 4.5,
      "category": "Museum",
      "city": "Hong Kong",
      "state": "Hong Kong",
      "country": "China"
    },
    {
      "name": "Lei Cheng Uk Han Tomb Museum",
      "latitude": 22.3386,
      "longitude": 114.1596,
      "picture": "han_tomb_museum",
      "rating": 4.2,
      "category": "Museum",
      "city": "Hong Kong",
      "state": "Hong Kong",
      "country": "China"
    },
    {
      "name": "Hong Kong Correctional Services Museum",
      "latitude": 22.2280,
      "longitude": 114.2130,
      "picture": "correctional_services_museum",
      "rating": 4.0,
      "category": "Museum",
      "city": "Hong Kong",
      "state": "Hong Kong",
      "country": "China"
    },
    {
      "name": "Hong Kong Racing Museum",
      "latitude": 22.2738,
      "longitude": 114.1817,
      "picture": "racing_museum",
      "rating": 4.1,
      "category": "Museum",
      "city": "Hong Kong",
      "state": "Hong Kong",
      "country": "China"
    },
    {
      "name": "Hong Kong Film Archive",
      "latitude": 22.2900,
      "longitude": 114.2220,
      "picture": "film_archive",
      "rating": 4.3,
      "category": "Museum",
      "city": "Hong Kong",
      "state": "Hong Kong",
      "country": "China"
    },
    {
      "name": "M+ Museum",
      "latitude": 22.2995,
      "longitude": 114.1532,
      "picture": "mplus_museum",
      "rating": 4.7,
      "category": "Museum",
      "city": "Hong Kong",
      "state": "Hong Kong",
      "country": "China"
    },
    {
      "name": "Hong Kong Palace Museum",
      "latitude": 22.2998,
      "longitude": 114.1536,
      "picture": "hk_palace_museum",
      "rating": 4.6,
      "category": "Museum",
      "city": "Hong Kong",
      "state": "Hong Kong",
      "country": "China"
    },
    {
      "name": "Tsim Sha Tsui Promenade",
      "latitude": 22.2933,
      "longitude": 114.1701,
      "picture": "tsim_sha_tsui_promenade",
      "rating": 4.7,
      "category": "Viewpoint",
      "city": "Hong Kong",
      "state": "Hong Kong",
      "country": "China"
    },
    {
      "name": "West Kowloon Cultural District",
      "latitude": 22.3008,
      "longitude": 114.1500,
      "picture": "west_kowloon_cultural",
      "rating": 4.6,
      "category": "Cultural",
      "city": "Hong Kong",
      "state": "Hong Kong",
      "country": "China"
    },
    {
      "name": "Wong Chuk Hang (South Island Art)",
      "latitude": 22.2480,
      "longitude": 114.1610,
      "picture": "wong_chuk_hang_art",
      "rating": 4.3,
      "category": "Cultural",
      "city": "Hong Kong",
      "state": "Hong Kong",
      "country": "China"
    },
    {
      "name": "Hollywood Road",
      "latitude": 22.2850,
      "longitude": 114.1505,
      "picture": "hollywood_road",
      "rating": 4.4,
      "category": "Cultural",
      "city": "Hong Kong",
      "state": "Hong Kong",
      "country": "China"
    },
    {
      "name": "Haiphong Road Temporary Market",
      "latitude": 22.2974,
      "longitude": 114.1730,
      "picture": "haiphong_market",
      "rating": 3.9,
      "category": "Shopping",
      "city": "Hong Kong",
      "state": "Hong Kong",
      "country": "China"
    },
    {
      "name": "Jardine's Crescent",
      "latitude": 22.2814,
      "longitude": 114.1861,
      "picture": "jardines_crescent",
      "rating": 4.2,
      "category": "Shopping",
      "city": "Hong Kong",
      "state": "Hong Kong",
      "country": "China"
    },
    {
      "name": "Causeway Bay",
      "latitude": 22.2804,
      "longitude": 114.1847,
      "picture": "causeway_bay",
      "rating": 4.4,
      "category": "Shopping",
      "city": "Hong Kong",
      "state": "Hong Kong",
      "country": "China"
    },
    {
      "name": "Tsim Sha Tsui East Waterfront",
      "latitude": 22.2960,
      "longitude": 114.1790,
      "picture": "tsim_sha_tsui_east_waterfront",
      "rating": 4.5,
      "category": "Viewpoint",
      "city": "Hong Kong",
      "state": "Hong Kong",
      "country": "China"
    },
    {
      "name": "Hong Kong–Zhuhai–Macau Bridge (Hong Kong End)",
      "latitude": 22.2810,
      "longitude": 113.9480,
      "picture": "hzmb",
      "rating": 4.2,
      "category": "Architecture",
      "city": "Lantau Island",
      "state": "Hong Kong",
      "country": "China"
    },
    {
      "name": "Tsang Tsui Chimney",
      "latitude": 22.4660,
      "longitude": 114.0030,
      "picture": "tsang_tsui_chimney",
      "rating": 3.5,
      "category": "Historical",
      "city": "Hong Kong",
      "state": "Hong Kong",
      "country": "China"
    },
    {
      "name": "Han Tomb (Lei Cheng Uk)",
      "latitude": 22.3386,
      "longitude": 114.1596,
      "picture": "han_tomb",
      "rating": 4.2,
      "category": "Historical",
      "city": "Hong Kong",
      "state": "Hong Kong",
      "country": "China"
    },
    {
      "name": "Mai Po Nature Reserve",
      "latitude": 22.4960,
      "longitude": 114.0390,
      "picture": "mai_po",
      "rating": 4.5,
      "category": "Natural",
      "city": "Hong Kong",
      "state": "Hong Kong",
      "country": "China"
    },
    {
      "name": "Hoi Ha Wan Marine Park",
      "latitude": 22.4650,
      "longitude": 114.3350,
      "picture": "hoi_ha_wan",
      "rating": 4.6,
      "category": "Natural",
      "city": "Sai Kung",
      "state": "Hong Kong",
      "country": "China"
    },
    {
      "name": "Tung Ping Chau",
      "latitude": 22.5470,
      "longitude": 114.4400,
      "picture": "tung_ping_chau",
      "rating": 4.5,
      "category": "Island",
      "city": "Hong Kong",
      "state": "Hong Kong",
      "country": "China"
    },
    {
      "name": "Po Toi Island",
      "latitude": 22.1790,
      "longitude": 114.2700,
      "picture": "po_toi_island",
      "rating": 4.3,
      "category": "Island",
      "city": "Hong Kong",
      "state": "Hong Kong",
      "country": "China"
    },
    {
      "name": "Yim Tin Tsai",
      "latitude": 22.3880,
      "longitude": 114.2840,
      "picture": "yim_tin_tsai",
      "rating": 4.2,
      "category": "Island",
      "city": "Sai Kung",
      "state": "Hong Kong",
      "country": "China"
    }
  ]
}      "category": "Attraction",
      "city": "Hong Kong",
      "state": "Hong Kong",
      "country": "China"
    },
    {
      "name": "Avenue of Stars",
      "latitude": 22.2931,
      "longitude": 114.1700,
      "picture": "avenue_of_stars",
      "rating": 4.5,
      "category": "Attraction",
      "city": "Hong Kong",
      "state": "Hong Kong",
      "country": "China"
    },
    {
      "name": "Hong Kong Disneyland",
      "latitude": 22.3130,
      "longitude": 114.0413,
      "picture": "disneyland_hk",
      "rating": 4.6,
      "category": "Attraction",
      "city": "Lantau Island",
      "state": "Hong Kong",
      "country": "China"
    },
    {
      "name": "Ocean Park Hong Kong",
      "latitude": 22.2467,
      "longitude": 114.1744,
      "picture": "ocean_park",
      "rating": 4.5,
      "category": "Amusement Park",
      "city": "Hong Kong",
      "state": "Hong Kong",
      "country": "China"
    },
    {
      "name": "Man Mo Temple",
      "latitude": 22.2840,
      "longitude": 114.1500,
      "picture": "man_mo_temple",
      "rating": 4.4,
      "category": "Religious",
      "city": "Hong Kong",
      "state": "Hong Kong",
      "country": "China"
    },
    {
      "name": "Wong Tai Sin Temple",
      "latitude": 22.3421,
      "longitude": 114.1936,
      "picture": "wong_tai_sin",
      "rating": 4.5,
      "category": "Religious",
      "city": "Hong Kong",
      "state": "Hong Kong",
      "country": "China"
    },
    {
      "name": "Nan Lian Garden",
      "latitude": 22.3356,
      "longitude": 114.2036,
      "picture": "nan_lian_garden",
      "rating": 4.7,
      "category": "Park",
      "city": "Hong Kong",
      "state": "Hong Kong",
      "country": "China"
    },
    {
      "name": "Kowloon Walled City Park",
      "latitude": 22.3325,
      "longitude": 114.1903,
      "picture": "kowloon_walled_city_park",
      "rating": 4.6,
      "category": "Historical",
      "city": "Hong Kong",
      "state": "Hong Kong",
      "country": "China"
    },
    {
      "name": "Hong Kong Museum of History",
      "latitude": 22.3017,
      "longitude": 114.1773,
      "picture": "hk_history_museum",
      "rating": 4.5,
      "category": "Museum",
      "city": "Hong Kong",
      "state": "Hong Kong",
      "country": "China"
    },
    {
      "name": "Hong Kong Space Museum",
      "latitude": 22.2942,
      "longitude": 114.1709,
      "picture": "hk_space_museum",
      "rating": 4.4,
      "category": "Museum",
      "city": "Hong Kong",
      "state": "Hong Kong",
      "country": "China"
    },
    {
      "name": "Tsim Sha Tsui Clock Tower",
      "latitude": 22.2936,
      "longitude": 114.1690,
      "picture": "tsim_sha_tsui_clock",
      "rating": 4.3,
      "category": "Historical",
      "city": "Hong Kong",
      "state": "Hong Kong",
      "country": "China"
    },
    {
      "name": "Ten Thousand Buddhas Monastery",
      "latitude": 22.3870,
      "longitude": 114.1846,
      "picture": "ten_thousand_buddhas",
      "rating": 4.5,
      "category": "Religious",
      "city": "Hong Kong",
      "state": "Hong Kong",
      "country": "China"
    },
    {
      "name": "Dragon's Back Trail",
      "latitude": 22.2430,
      "longitude": 114.2360,
      "picture": "dragons_back",
      "rating": 4.8,
      "category": "Natural",
      "city": "Hong Kong",
      "state": "Hong Kong",
      "country": "China"
    },
    {
      "name": "Tai O Fishing Village",
      "latitude": 22.2561,
      "longitude": 113.8550,
      "picture": "tai_o",
      "rating": 4.4,
      "category": "Cultural",
      "city": "Lantau Island",
      "state": "Hong Kong",
      "country": "China"
    },
    {
      "name": "Lantau Trail",
      "latitude": 22.2700,
      "longitude": 113.9300,
      "picture": "lantau_trail",
      "rating": 4.6,
      "category": "Natural",
      "city": "Lantau Island",
      "state": "Hong Kong",
      "country": "China"
    },
    {
      "name": "Repulse Bay Beach",
      "latitude": 22.2415,
      "longitude": 114.1968,
      "picture": "repulse_bay",
      "rating": 4.5,
      "category": "Beach",
      "city": "Hong Kong",
      "state": "Hong Kong",
      "country": "China"
    },
    {
      "name": "Stanley Market",
      "latitude": 22.2182,
      "longitude": 114.2110,
      "picture": "stanley_market",
      "rating": 4.4,
      "category": "Shopping",
      "city": "Hong Kong",
      "state": "Hong Kong",
      "country": "China"
    },
    {
      "name": "Temple Street Night Market",
      "latitude": 22.3094,
      "longitude": 114.1701,
      "picture": "temple_street_market",
      "rating": 4.3,
      "category": "Shopping",
      "city": "Hong Kong",
      "state": "Hong Kong",
      "country": "China"
    },
    {
      "name": "Hong Kong Park",
      "latitude": 22.2773,
      "longitude": 114.1632,
      "picture": "hk_park",
      "rating": 4.5,
      "category": "Park",
      "city": "Hong Kong",
      "state": "Hong Kong",
      "country": "China"
    },
    {
      "name": "Victoria Harbour",
      "latitude": 22.2850,
      "longitude": 114.1600,
      "picture": "victoria_harbour",
      "rating": 4.8,
      "category": "Natural",
      "city": "Hong Kong",
      "state": "Hong Kong",
      "country": "China"
    },
    {
      "name": "Bank of China Tower",
      "latitude": 22.2791,
      "longitude": 114.1619,
      "picture": "boc_tower",
      "rating": 4.4,
      "category": "Architecture",
      "city": "Hong Kong",
      "state": "Hong Kong",
      "country": "China"
    },
    {
      "name": "International Commerce Centre (ICC)",
      "latitude": 22.3038,
      "longitude": 114.1601,
      "picture": "icc",
      "rating": 4.5,
      "category": "Architecture",
      "city": "Hong Kong",
      "state": "Hong Kong",
      "country": "China"
    },
    {
      "name": "Mong Kok District",
      "latitude": 22.3190,
      "longitude": 114.1690,
      "picture": "mong_kok",
      "rating": 4.3,
      "category": "Shopping",
      "city": "Hong Kong",
      "state": "Hong Kong",
      "country": "China"
    },
    {
      "name": "Hong Kong Wetland Park",
      "latitude": 22.4670,
      "longitude": 114.0040,
      "picture": "wetland_park",
      "rating": 4.4,
      "category": "Park",
      "city": "Hong Kong",
      "state": "Hong Kong",
      "country": "China"
    },
    {
      "name": "Cheung Chau Island",
      "latitude": 22.2105,
      "longitude": 114.0300,
      "picture": "cheung_chau",
      "rating": 4.5,
      "category": "Island",
      "city": "Cheung Chau",
      "state": "Hong Kong",
      "country": "China"
    },
    {
      "name": "Po Lin Monastery",
      "latitude": 22.2540,
      "longitude": 113.9041,
      "picture": "po_lin_monastery",
      "rating": 4.6,
      "category": "Religious",
      "city": "Lantau Island",
      "state": "Hong Kong",
      "country": "China"
    },
    {
      "name": "Ngong Ping 360",
      "latitude": 22.2882,
      "longitude": 113.9430,
      "picture": "ngong_ping_360",
      "rating": 4.6,
      "category": "Attraction",
      "city": "Lantau Island",
      "state": "Hong Kong",
      "country": "China"
    }
  ]
}
