{
  "packId": "cn_hong_kong",
  "name": "Hong Kong",
  "country": "China",
  "flag": "🇭🇰",
  "version": "1.0",
  "description": "Vibrant landmarks of Hong Kong",
  "landmarks": [
    {
      "name": "Victoria Peak",
      "latitude": 22.2758,
      "longitude": 114.1455,
      "picture": "victoria_peak",
      "rating": 4.8,
      "category": "Viewpoint",
      "city": "Hong Kong",
      "state": "Hong Kong",
      "country": "China"
    },
    {
      "name": "Tian Tan Buddha (Big Buddha)",
      "latitude": 22.2538,
      "longitude": 113.9047,
      "picture": "big_buddha",
      "rating": 4.7,
      "category": "Monument",
      "city": "Lantau Island",
      "state": "Hong Kong",
      "country": "China"
    },
    {
      "name": "Star Ferry",
      "latitude": 22.2864,
      "longitude": 114.1581,
      "picture": "star_ferry",
      "rating": 4.6,
      "category": "Attraction",
      "city": "Hong Kong",
      "state": "Hong Kong",
      "country": "China"
    },
    {
      "name": "Avenue of Stars",
      "latitude": 22.2931,
      "longitude": 114.1700,
      "picture": "avenue_of_stars",
      "rating": 4.5,
      "category": "Attraction",
      "city": "Hong Kong",
      "state": "Hong Kong",
      "country": "China"
    },
    {
      "name": "Hong Kong Disneyland",
      "latitude": 22.3130,
      "longitude": 114.0413,
      "picture": "disneyland_hk",
      "rating": 4.6,
      "category": "Attraction",
      "city": "Lantau Island",
      "state": "Hong Kong",
      "country": "China"
    },
    {
      "name": "Ocean Park Hong Kong",
      "latitude": 22.2467,
      "longitude": 114.1744,
      "picture": "ocean_park",
      "rating": 4.5,
      "category": "Amusement Park",
      "city": "Hong Kong",
      "state": "Hong Kong",
      "country": "China"
    },
    {
      "name": "Man Mo Temple",
      "latitude": 22.2840,
      "longitude": 114.1500,
      "picture": "man_mo_temple",
      "rating": 4.4,
      "category": "Religious",
      "city": "Hong Kong",
      "state": "Hong Kong",
      "country": "China"
    },
    {
      "name": "Wong Tai Sin Temple",
      "latitude": 22.3421,
      "longitude": 114.1936,
      "picture": "wong_tai_sin",
      "rating": 4.5,
      "category": "Religious",
      "city": "Hong Kong",
      "state": "Hong Kong",
      "country": "China"
    },
    {
      "name": "Nan Lian Garden",
      "latitude": 22.3356,
      "longitude": 114.2036,
      "picture": "nan_lian_garden",
      "rating": 4.7,
      "category": "Park",
      "city": "Hong Kong",
      "state": "Hong Kong",
      "country": "China"
    },
    {
      "name": "Kowloon Walled City Park",
      "latitude": 22.3325,
      "longitude": 114.1903,
      "picture": "kowloon_walled_city_park",
      "rating": 4.6,
      "category": "Historical",
      "city": "Hong Kong",
      "state": "Hong Kong",
      "country": "China"
    },
    {
      "name": "Hong Kong Museum of History",
      "latitude": 22.3017,
      "longitude": 114.1773,
      "picture": "hk_history_museum",
      "rating": 4.5,
      "category": "Museum",
      "city": "Hong Kong",
      "state": "Hong Kong",
      "country": "China"
    },
    {
      "name": "Hong Kong Space Museum",
      "latitude": 22.2942,
      "longitude": 114.1709,
      "picture": "hk_space_museum",
      "rating": 4.4,
      "category": "Museum",
      "city": "Hong Kong",
      "state": "Hong Kong",
      "country": "China"
    },
    {
      "name": "Tsim Sha Tsui Clock Tower",
      "latitude": 22.2936,
      "longitude": 114.1690,
      "picture": "tsim_sha_tsui_clock",
      "rating": 4.3,
      "category": "Historical",
      "city": "Hong Kong",
      "state": "Hong Kong",
      "country": "China"
    },
    {
      "name": "Ten Thousand Buddhas Monastery",
      "latitude": 22.3870,
      "longitude": 114.1846,
      "picture": "ten_thousand_buddhas",
      "rating": 4.5,
      "category": "Religious",
      "city": "Hong Kong",
      "state": "Hong Kong",
      "country": "China"
    },
    {
      "name": "Dragon's Back Trail",
      "latitude": 22.2430,
      "longitude": 114.2360,
      "picture": "dragons_back",
      "rating": 4.8,
      "category": "Natural",
      "city": "Hong Kong",
      "state": "Hong Kong",
      "country": "China"
    },
    {
      "name": "Tai O Fishing Village",
      "latitude": 22.2561,
      "longitude": 113.8550,
      "picture": "tai_o",
      "rating": 4.4,
      "category": "Cultural",
      "city": "Lantau Island",
      "state": "Hong Kong",
      "country": "China"
    },
    {
      "name": "Lantau Trail",
      "latitude": 22.2700,
      "longitude": 113.9300,
      "picture": "lantau_trail",
      "rating": 4.6,
      "category": "Natural",
      "city": "Lantau Island",
      "state": "Hong Kong",
      "country": "China"
    },
    {
      "name": "Repulse Bay Beach",
      "latitude": 22.2415,
      "longitude": 114.1968,
      "picture": "repulse_bay",
      "rating": 4.5,
      "category": "Beach",
      "city": "Hong Kong",
      "state": "Hong Kong",
      "country": "China"
    },
    {
      "name": "Stanley Market",
      "latitude": 22.2182,
      "longitude": 114.2110,
      "picture": "stanley_market",
      "rating": 4.4,
      "category": "Shopping",
      "city": "Hong Kong",
      "state": "Hong Kong",
      "country": "China"
    },
    {
      "name": "Temple Street Night Market",
      "latitude": 22.3094,
      "longitude": 114.1701,
      "picture": "temple_street_market",
      "rating": 4.3,
      "category": "Shopping",
      "city": "Hong Kong",
      "state": "Hong Kong",
      "country": "China"
    },
    {
      "name": "Hong Kong Park",
      "latitude": 22.2773,
      "longitude": 114.1632,
      "picture": "hk_park",
      "rating": 4.5,
      "category": "Park",
      "city": "Hong Kong",
      "state": "Hong Kong",
      "country": "China"
    },
    {
      "name": "Victoria Harbour",
      "latitude": 22.2850,
      "longitude": 114.1600,
      "picture": "victoria_harbour",
      "rating": 4.8,
      "category": "Natural",
      "city": "Hong Kong",
      "state": "Hong Kong",
      "country": "China"
    },
    {
      "name": "Bank of China Tower",
      "latitude": 22.2791,
      "longitude": 114.1619,
      "picture": "boc_tower",
      "rating": 4.4,
      "category": "Architecture",
      "city": "Hong Kong",
      "state": "Hong Kong",
      "country": "China"
    },
    {
      "name": "International Commerce Centre (ICC)",
      "latitude": 22.3038,
      "longitude": 114.1601,
      "picture": "icc",
      "rating": 4.5,
      "category": "Architecture",
      "city": "Hong Kong",
      "state": "Hong Kong",
      "country": "China"
    },
    {
      "name": "Mong Kok District",
      "latitude": 22.3190,
      "longitude": 114.1690,
      "picture": "mong_kok",
      "rating": 4.3,
      "category": "Shopping",
      "city": "Hong Kong",
      "state": "Hong Kong",
      "country": "China"
    },
    {
      "name": "Hong Kong Wetland Park",
      "latitude": 22.4670,
      "longitude": 114.0040,
      "picture": "wetland_park",
      "rating": 4.4,
      "category": "Park",
      "city": "Hong Kong",
      "state": "Hong Kong",
      "country": "China"
    },
    {
      "name": "Cheung Chau Island",
      "latitude": 22.2105,
      "longitude": 114.0300,
      "picture": "cheung_chau",
      "rating": 4.5,
      "category": "Island",
      "city": "Cheung Chau",
      "state": "Hong Kong",
      "country": "China"
    },
    {
      "name": "Po Lin Monastery",
      "latitude": 22.2540,
      "longitude": 113.9041,
      "picture": "po_lin_monastery",
      "rating": 4.6,
      "category": "Religious",
      "city": "Lantau Island",
      "state": "Hong Kong",
      "country": "China"
    },
    {
      "name": "Ngong Ping 360",
      "latitude": 22.2882,
      "longitude": 113.9430,
      "picture": "ngong_ping_360",
      "rating": 4.6,
      "category": "Attraction",
      "city": "Lantau Island",
      "state": "Hong Kong",
      "country": "China"
    }
  ]
}
