{
    "packId": "us_new_york",
    "name": "New York",
    "country": "USA",
    "flag": "🇺🇸",
    "version": "1.3",
    "landmarks": [
        {
            "name": "Dyker Heights Christmas Lights",
            "latitude": 40.6206,
            "longitude": -74.0152,
            "picture": "dyker_heights_christmas_lights",
            "rating": 5.0,
            "category": "Attraction",
            "city": "Brooklyn",
            "state": "New York",
            "country": "USA"
        },
        {
            "name": "Statue of Liberty",
            "latitude": 40.6892,
            "longitude": -74.0445,
            "picture": "statue_of_liberty",
            "rating": 4.8,
            "category": "Monument",
            "city": "New York City",
            "state": "New York",
            "country": "USA"
        },
        {
            "name": "Empire State Building",
            "latitude": 40.7488,
            "longitude": -73.9857,
            "picture": "empire_state",
            "rating": 4.7,
            "category": "Architecture",
            "city": "New York City",
            "state": "New York",
            "country": "USA"
        },
        {
            "name": "Times Square",
            "latitude": 40.7580,
            "longitude": -73.9855,
            "picture": "times_square",
            "rating": 4.5,
            "category": "Attraction",
            "city": "New York City",
            "state": "New York",
            "country": "USA"
        },
        {
            "name": "Central Park",
            "latitude": 40.7851,
            "longitude": -73.9683,
            "picture": "central_park",
            "rating": 4.9,
            "category": "Park",
            "city": "New York City",
            "state": "New York",
            "country": "USA"
        },
        {
            "name": "Brooklyn Bridge",
            "latitude": 40.7061,
            "longitude": -73.9969,
            "picture": "brooklyn_bridge",
            "rating": 4.8,
            "category": "Bridge",
            "city": "New York City",
            "state": "New York",
            "country": "USA"
        },
        {
            "name": "One World Trade Center",
            "latitude": 40.7127,
            "longitude": -74.0134,
            "picture": "one_world_trade",
            "rating": 4.7,
            "category": "Monument",
            "city": "New York City",
            "state": "New York",
            "country": "USA"
        },
        {
            "name": "Rockefeller Center",
            "latitude": 40.7587,
            "longitude": -73.9787,
            "picture": "rockefeller",
            "rating": 4.6,
            "category": "Architecture",
            "city": "New York City",
            "state": "New York",
            "country": "USA"
        },
        {
            "name": "Grand Central Terminal",
            "latitude": 40.7527,
            "longitude": -73.9772,
            "picture": "grand_central",
            "rating": 4.8,
            "category": "Architecture",
            "city": "New York City",
            "state": "New York",
            "country": "USA"
        },
        {
            "name": "Metropolitan Museum of Art",
            "latitude": 40.7794,
            "longitude": -73.9632,
            "picture": "met_museum",
            "rating": 4.9,
            "category": "Museum",
            "city": "New York City",
            "state": "New York",
            "country": "USA"
        },
        {
            "name": "American Museum of Natural History",
            "latitude": 40.7813,
            "longitude": -73.9739,
            "picture": "natural_history",
            "rating": 4.8,
            "category": "Museum",
            "city": "New York City",
            "state": "New York",
            "country": "USA"
        },
        {
            "name": "Brooklyn Museum",
            "latitude": 40.6712,
            "longitude": -73.9636,
            "picture": "brooklyn_museum",
            "rating": 4.7,
            "category": "Museum",
            "city": "Brooklyn",
            "state": "New York",
            "country": "USA"
        },
        {
            "name": "Prospect Park",
            "latitude": 40.6602,
            "longitude": -73.9690,
            "picture": "prospect_park",
            "rating": 4.8,
            "category": "Park",
            "city": "Brooklyn",
            "state": "New York",
            "country": "USA"
        },
        {
            "name": "Coney Island",
            "latitude": 40.5749,
            "longitude": -73.9854,
            "picture": "coney_island",
            "rating": 4.6,
            "category": "Attraction",
            "city": "Brooklyn",
            "state": "New York",
            "country": "USA"
        },
        {
            "name": "Brooklyn Botanic Garden",
            "latitude": 40.6680,
            "longitude": -73.9640,
            "picture": "brooklyn_botanic",
            "rating": 4.8,
            "category": "Park",
            "city": "Brooklyn",
            "state": "New York",
            "country": "USA"
        },
        {
            "name": "High Line Park",
            "latitude": 40.7480,
            "longitude": -74.0048,
            "picture": "high_line",
            "rating": 4.7,
            "category": "Park",
            "city": "New York City",
            "state": "New York",
            "country": "USA"
        },
        {
            "name": "The Edge (Hudson Yards)",
            "latitude": 40.7545,
            "longitude": -74.0022,
            "picture": "the_edge",
            "rating": 4.7,
            "category": "Attraction",
            "city": "New York City",
            "state": "New York",
            "country": "USA"
        },
        {
            "name": "Niagara Falls",
            "latitude": 43.0962,
            "longitude": -79.0377,
            "picture": "niagara_falls",
            "rating": 4.9,
            "category": "Natural",
            "city": "Niagara Falls",
            "state": "New York",
            "country": "USA"
        },
        {
            "name": "Adirondack Mountains",
            "latitude": 44.1120,
            "longitude": -73.9234,
            "picture": "adirondacks",
            "rating": 4.8,
            "category": "Natural",
            "city": "Adirondack",
            "state": "New York",
            "country": "USA"
        },
        {
            "name": "Lake Placid",
            "latitude": 44.2805,
            "longitude": -73.9853,
            "picture": "lake_placid",
            "rating": 4.6,
            "category": "Natural",
            "city": "Lake Placid",
            "state": "New York",
            "country": "USA"
        },
        {
            "name": "Saratoga Race Course",
            "latitude": 43.0751,
            "longitude": -73.7843,
            "picture": "saratoga",
            "rating": 4.5,
            "category": "Historical",
            "city": "Saratoga Springs",
            "state": "New York",
            "country": "USA"
        },
        {
            "name": "Corning Museum of Glass",
            "latitude": 42.1499,
            "longitude": -77.0543,
            "picture": "corning_glass",
            "rating": 4.7,
            "category": "Museum",
            "city": "Corning",
            "state": "New York",
            "country": "USA"
        },
        {
            "name": "Watkins Glen State Park",
            "latitude": 42.3747,
            "longitude": -76.8699,
            "picture": "watkins_glen",
            "rating": 4.8,
            "category": "Park",
            "city": "Watkins Glen",
            "state": "New York",
            "country": "USA"
        },
        {
            "name": "Letchworth State Park",
            "latitude": 42.5761,
            "longitude": -78.0525,
            "picture": "letchworth",
            "rating": 4.8,
            "category": "Park",
            "city": "Castile",
            "state": "New York",
            "country": "USA"
        },
        {
            "name": "Finger Lakes",
            "latitude": 42.6667,
            "longitude": -76.7000,
            "picture": "finger_lakes",
            "rating": 4.7,
            "category": "Natural",
            "city": "Finger Lakes",
            "state": "New York",
            "country": "USA"
        },
        {
            "name": "Fort Ticonderoga",
            "latitude": 43.8415,
            "longitude": -73.3889,
            "picture": "fort_ticonderoga",
            "rating": 4.5,
            "category": "Historical",
            "city": "Ticonderoga",
            "state": "New York",
            "country": "USA"
        },
        {
            "name": "West Point Military Academy",
            "latitude": 41.3919,
            "longitude": -73.9548,
            "picture": "west_point",
            "rating": 4.6,
            "category": "Historical",
            "city": "West Point",
            "state": "New York",
            "country": "USA"
        },
        {
            "name": "Bear Mountain State Park",
            "latitude": 41.3128,
            "longitude": -73.9995,
            "picture": "bear_mountain",
            "rating": 4.5,
            "category": "Park",
            "city": "Bear Mountain",
            "state": "New York",
            "country": "USA"
        },
        {
            "name": "Woodstock",
            "latitude": 42.0405,
            "longitude": -74.1182,
            "picture": "woodstock",
            "rating": 4.4,
            "category": "Historical",
            "city": "Woodstock",
            "state": "New York",
            "country": "USA"
        },
        {
            "name": "Baseball Hall of Fame",
            "latitude": 42.7003,
            "longitude": -74.9230,
            "picture": "baseball_hof",
            "rating": 4.8,
            "category": "Museum",
            "city": "Cooperstown",
            "state": "New York",
            "country": "USA"
        },
        {
            "name": "Boldt Castle",
            "latitude": 44.3445,
            "longitude": -75.9325,
            "picture": "boldt_castle",
            "rating": 4.6,
            "category": "Architecture",
            "city": "Alexandria Bay",
            "state": "New York",
            "country": "USA"
        },
        {
            "name": "Howe Caverns",
            "latitude": 42.6972,
            "longitude": -74.3869,
            "picture": "howe_caverns",
            "rating": 4.5,
            "category": "Natural",
            "city": "Howes Cave",
            "state": "New York",
            "country": "USA"
        },
        {
            "name": "Frank Lloyd Wright's Martin House",
            "latitude": 42.9331,
            "longitude": -78.8486,
            "picture": "martin_house",
            "rating": 4.7,
            "category": "Architecture",
            "city": "Buffalo",
            "state": "New York",
            "country": "USA"
        },
        {
            "name": "Buffalo City Hall",
            "latitude": 42.8864,
            "longitude": -78.8784,
            "picture": "buffalo_city_hall",
            "rating": 4.5,
            "category": "Architecture",
            "city": "Buffalo",
            "state": "New York",
            "country": "USA"
        },
        {
            "name": "Erie Canal",
            "latitude": 43.0962,
            "longitude": -78.8630,
            "picture": "erie_canal",
            "rating": 4.4,
            "category": "Historical",
            "city": "Buffalo",
            "state": "New York",
            "country": "USA"
        },
        {
            "name": "Anchor Bar",
            "latitude": 42.9073,
            "longitude": -78.8553,
            "picture": "anchor_bar",
            "rating": 4.3,
            "category": "Attraction",
            "city": "Buffalo",
            "state": "New York",
            "country": "USA"
        }
    ]
}
