{
  "packId": "us_new_york",
  "name": "New York",
  "country": "USA",
  "flag": "🇺🇸",
  "version": "1.1",
  "landmarks": [
    {
      "name": "Statue of Liberty",
      "latitude": 40.6892,
      "longitude": -74.0445,
      "picture": "statue_of_liberty",
      "rating": 4.8,
      "category": "Monument",
      "city": "New York City",
      "state": "New York",
      "country": "USA"
    },
    {
      "name": "Empire State Building",
      "latitude": 40.7488,
      "longitude": -73.9857,
      "picture": "empire_state",
      "rating": 4.7,
      "category": "Architecture",
      "city": "New York City",
      "state": "New York",
      "country": "USA"
    },
    {
      "name": "Times Square",
      "latitude": 40.7580,
      "longitude": -73.9855,
      "picture": "times_square",
      "rating": 4.5,
      "category": "Attraction",
      "city": "New York City",
      "state": "New York",
      "country": "USA"
    },
    {
      "name": "Central Park",
      "latitude": 40.7851,
      "longitude": -73.9683,
      "picture": "central_park",
      "rating": 4.9,
      "category": "Park",
      "city": "New York City",
      "state": "New York",
      "country": "USA"
    },
    {
      "name": "Brooklyn Bridge",
      "latitude": 40.7061,
      "longitude": -73.9969,
      "picture": "brooklyn_bridge",
      "rating": 4.8,
      "category": "Bridge",
      "city": "New York City",
      "state": "New York",
      "country": "USA"
    },
    {
      "name": "One World Trade Center",
      "latitude": 40.7127,
      "longitude": -74.0134,
      "picture": "one_world_trade",
      "rating": 4.7,
      "category": "Monument",
      "city": "New York City",
      "state": "New York",
      "country": "USA"
    },
    {
      "name": "Rockefeller Center",
      "latitude": 40.7587,
      "longitude": -73.9787,
      "picture": "rockefeller",
      "rating": 4.6,
      "category": "Architecture",
      "city": "New York City",
      "state": "New York",
      "country": "USA"
    },
    {
      "name": "Grand Central Terminal",
      "latitude": 40.7527,
      "longitude": -73.9772,
      "picture": "grand_central",
      "rating": 4.8,
      "category": "Architecture",
      "city": "New York City",
      "state": "New York",
      "country": "USA"
    },
    {
      "name": "Metropolitan Museum of Art",
      "latitude": 40.7794,
      "longitude": -73.9632,
      "picture": "met_museum",
      "rating": 4.9,
      "category": "Museum",
      "city": "New York City",
      "state": "New York",
      "country": "USA"
    },
    {
      "name": "American Museum of Natural History",
      "latitude": 40.7813,
      "longitude": -73.9739,
      "picture": "natural_history",
      "rating": 4.8,
      "category": "Museum",
      "city": "New York City",
      "state": "New York",
      "country": "USA"
    },
    {
      "name": "Brooklyn Museum",
      "latitude": 40.6712,
      "longitude": -73.9636,
      "picture": "brooklyn_museum",
      "rating": 4.7,
      "category": "Museum",
      "city": "Brooklyn",
      "state": "New York",
      "country": "USA"
    },
    {
      "name": "Prospect Park",
      "latitude": 40.6602,
      "longitude": -73.9690,
      "picture": "prospect_park",
      "rating": 4.8,
      "category": "Park",
      "city": "Brooklyn",
      "state": "New York",
      "country": "USA"
    },
    {
      "name": "Coney Island",
      "latitude": 40.5749,
      "longitude": -73.9854,
      "picture": "coney_island",
      "rating": 4.6,
      "category": "Attraction",
      "city": "Brooklyn",
      "state": "New York",
      "country": "USA"
    },
    {
      "name": "Brooklyn Botanic Garden",
      "latitude": 40.6680,
      "longitude": -73.9640,
      "picture": "brooklyn_botanic",
      "rating": 4.8,
      "category": "Park",
      "city": "Brooklyn",
      "state": "New York",
      "country": "USA"
    },
    {
      "name": "High Line Park",
      "latitude": 40.7480,
      "longitude": -74.0048,
      "picture": "high_line",
      "rating": 4.7,
      "category": "Park",
      "city": "New York City",
      "state": "New York",
      "country": "USA"
    },
    {
      "name": "Niagara Falls",
      "latitude": 43.0962,
      "longitude": -79.0377,
      "picture": "niagara_falls",
      "rating": 4.9,
      "category": "Natural",
      "city": "Niagara Falls",
      "state": "New York",
      "country": "USA"
    },
    {
      "name": "Adirondack Mountains",
      "latitude": 44.1120,
      "longitude": -73.9234,
      "picture": "adirondacks",
      "rating": 4.8,
      "category": "Natural",
      "city": "Adirondack",
      "state": "New York",
      "country": "USA"
    },
    {
      "name": "Lake Placid",
      "latitude": 44.2805,
      "longitude": -73.9853,
      "picture": "lake_placid",
      "rating": 4.6,
      "category": "Natural",
      "city": "Lake Placid",
      "state": "New York",
      "country": "USA"
    },
    {
      "name": "Saratoga Race Course",
      "latitude": 43.0751,
      "longitude": -73.7843,
      "picture": "saratoga",
      "rating": 4.5,
      "category": "Historical",
      "city": "Saratoga Springs",
      "state": "New York",
      "country": "USA"
    },
    {
      "name": "Corning Museum of Glass",
      "latitude": 42.1499,
      "longitude": -77.0543,
      "picture": "corning_glass",
      "rating": 4.7,
      "category": "Museum",
      "city": "Corning",
      "state": "New York",
      "country": "USA"
    },
    {
      "name": "Watkins Glen State Park",
      "latitude": 42.3747,
      "longitude": -76.8699,
      "picture": "watkins_glen",
      "rating": 4.8,
      "category": "Park",
      "city": "Watkins Glen",
      "state": "New York",
      "country": "USA"
    },
    {
      "name": "Letchworth State Park",
      "latitude": 42.5761,
      "longitude": -78.0525,
      "picture": "letchworth",
      "rating": 4.8,
      "category": "Park",
      "city": "Castile",
      "state": "New York",
      "country": "USA"
    },
    {
      "name": "Finger Lakes",
      "latitude": 42.6667,
      "longitude": -76.7000,
      "picture": "finger_lakes",
      "rating": 4.7,
      "category": "Natural",
      "city": "Finger Lakes",
      "state": "New York",
      "country": "USA"
    },
    {
      "name": "Fort Ticonderoga",
      "latitude": 43.8415,
      "longitude": -73.3889,
      "picture": "fort_ticonderoga",
      "rating": 4.5,
      "category": "Historical",
      "city": "Ticonderoga",
      "state": "New York",
      "country": "USA"
    },
    {
      "name": "West Point Military Academy",
      "latitude": 41.3919,
      "longitude": -73.9548,
      "picture": "west_point",
      "rating": 4.6,
      "category": "Historical",
      "city": "West Point",
      "state": "New York",
      "country": "USA"
    },
    {
      "name": "Bear Mountain State Park",
      "latitude": 41.3128,
      "longitude": -73.9995,
      "picture": "bear_mountain",
      "rating": 4.5,
      "category": "Park",
      "city": "Bear Mountain",
      "state": "New York",
      "country": "USA"
    },
    {
      "name": "Woodstock",
      "latitude": 42.0405,
      "longitude": -74.1182,
      "picture": "woodstock",
      "rating": 4.4,
      "category": "Historical",
      "city": "Woodstock",
      "state": "New York",
      "country": "USA"
    },
    {
      "name": "Baseball Hall of Fame",
      "latitude": 42.7003,
      "longitude": -74.9230,
      "picture": "baseball_hof",
      "rating": 4.8,
      "category": "Museum",
      "city": "Cooperstown",
      "state": "New York",
      "country": "USA"
    },
    {
      "name": "Boldt Castle",
      "latitude": 44.3445,
      "longitude": -75.9325,
      "picture": "boldt_castle",
      "rating": 4.6,
      "category": "Architecture",
      "city": "Alexandria Bay",
      "state": "New York",
      "country": "USA"
    },
    {
      "name": "Howe Caverns",
      "latitude": 42.6972,
      "longitude": -74.3869,
      "picture": "howe_caverns",
      "rating": 4.5,
      "category": "Natural",
      "city": "Howes Cave",
      "state": "New York",
      "country": "USA"
    },
    {
      "name": "Frank Lloyd Wright's Martin House",
      "latitude": 42.9331,
      "longitude": -78.8486,
      "picture": "martin_house",
      "rating": 4.7,
      "category": "Architecture",
      "city": "Buffalo",
      "state": "New York",
      "country": "USA"
    },
    {
      "name": "Buffalo City Hall",
      "latitude": 42.8864,
      "longitude": -78.8784,
      "picture": "buffalo_city_hall",
      "rating": 4.5,
      "category": "Architecture",
      "city": "Buffalo",
      "state": "New York",
      "country": "USA"
    },
    {
      "name": "Erie Canal",
      "latitude": 43.0962,
      "longitude": -78.8630,
      "picture": "erie_canal",
      "rating": 4.4,
      "category": "Historical",
      "city": "Buffalo",
      "state": "New York",
      "country": "USA"
    },
    {
      "name": "Anchor Bar",
      "latitude": 42.9073,
      "longitude": -78.8553,
      "picture": "anchor_bar",
      "rating": 4.3,
      "category": "Attraction",
      "city": "Buffalo",
      "state": "New York",
      "country": "USA"
    },
    {
      "name": "Sackets Harbor Battlefield",
      "latitude": 43.9342,
      "longitude": -76.1219,
      "picture": "sackets_harbor",
      "rating": 4.3,
      "category": "Historical",
      "city": "Sackets Harbor",
      "state": "New York",
      "country": "USA"
    },
    {
      "name": "Old Fort Niagara",
      "latitude": 43.2623,
      "longitude": -79.0623,
      "picture": "old_fort_niagara",
      "rating": 4.6,
      "category": "Historical",
      "city": "Youngstown",
      "state": "New York",
      "country": "USA"
    },
    {
      "name": "Chautauqua Institution",
      "latitude": 42.2092,
      "longitude": -79.4662,
      "picture": "chautauqua",
      "rating": 4.5,
      "category": "Cultural",
      "city": "Chautauqua",
      "state": "New York",
      "country": "USA"
    },
    {
      "name": "Ganondagan State Historic Site",
      "latitude": 42.9615,
      "longitude": -77.4155,
      "picture": "ganondagan",
      "rating": 4.4,
      "category": "Historical",
      "city": "Victor",
      "state": "New York",
      "country": "USA"
    },
    {
      "name": "Olana State Historic Site",
      "latitude": 42.2190,
      "longitude": -73.8285,
      "picture": "olana",
      "rating": 4.5,
      "category": "Historical",
      "city": "Hudson",
      "state": "New York",
      "country": "USA"
    },
    {
      "name": "Kaaterskill Falls",
      "latitude": 42.1926,
      "longitude": -74.0604,
      "picture": "kaaterskill_falls",
      "rating": 4.7,
      "category": "Natural",
      "city": "Haines Falls",
      "state": "New York",
      "country": "USA"
    },
    {
      "name": "Minnewaska State Park Preserve",
      "latitude": 41.7151,
      "longitude": -74.2182,
      "picture": "minnewaska",
      "rating": 4.8,
      "category": "Park",
      "city": "Kerhonkson",
      "state": "New York",
      "country": "USA"
    },
    {
      "name": "Mohonk Preserve",
      "latitude": 41.7487,
      "longitude": -74.1660,
      "picture": "mohonk",
      "rating": 4.7,
      "category": "Park",
      "city": "New Paltz",
      "state": "New York",
      "country": "USA"
    },
    {
      "name": "Mohonk Mountain House",
      "latitude": 41.7453,
      "longitude": -74.1649,
      "picture": "mohonk_house",
      "rating": 4.6,
      "category": "Architecture",
      "city": "New Paltz",
      "state": "New York",
      "country": "USA"
    },
    {
      "name": "Storm King Art Center",
      "latitude": 41.4237,
      "longitude": -74.0560,
      "picture": "storm_king",
      "rating": 4.8,
      "category": "Museum",
      "city": "New Windsor",
      "state": "New York",
      "country": "USA"
    },
    {
      "name": "Vanderbilt Mansion National Historic Site",
      "latitude": 41.8826,
      "longitude": -73.9435,
      "picture": "vanderbilt_mansion",
      "rating": 4.5,
      "category": "Historical",
      "city": "Hyde Park",
      "state": "New York",
      "country": "USA"
    },
    {
      "name": "Home of Franklin D. Roosevelt",
      "latitude": 41.7668,
      "longitude": -73.9301,
      "picture": "fdr_home",
      "rating": 4.6,
      "category": "Historical",
      "city": "Hyde Park",
      "state": "New York",
      "country": "USA"
    },
    {
      "name": "Eleanor Roosevelt National Historic Site",
      "latitude": 41.7617,
      "longitude": -73.9278,
      "picture": "eleanor_roosevelt",
      "rating": 4.5,
      "category": "Historical",
      "city": "Hyde Park",
      "state": "New York",
      "country": "USA"
    },
    {
      "name": "Lyndhurst Mansion",
      "latitude": 41.0537,
      "longitude": -73.8657,
      "picture": "lyndhurst",
      "rating": 4.5,
      "category": "Architecture",
      "city": "Tarrytown",
      "state": "New York",
      "country": "USA"
    },
    {
      "name": "Sleepy Hollow Cemetery",
      "latitude": 41.0982,
      "longitude": -73.8610,
      "picture": "sleepy_hollow",
      "rating": 4.6,
      "category": "Historical",
      "city": "Sleepy Hollow",
      "state": "New York",
      "country": "USA"
    },
    {
      "name": "Jones Beach State Park",
      "latitude": 40.5959,
      "longitude": -73.5147,
      "picture": "jones_beach",
      "rating": 4.5,
      "category": "Park",
      "city": "Wantagh",
      "state": "New York",
      "country": "USA"
    },
    {
      "name": "Fire Island National Seashore",
      "latitude": 40.6546,
      "longitude": -73.1273,
      "picture": "fire_island",
      "rating": 4.7,
      "category": "Park",
      "city": "Fire Island",
      "state": "New York",
      "country": "USA"
    },
    {
      "name": "Montauk Point Lighthouse",
      "latitude": 41.0708,
      "longitude": -71.8570,
      "picture": "montauk_lighthouse",
      "rating": 4.7,
      "category": "Lighthouse",
      "city": "Montauk",
      "state": "New York",
      "country": "USA"
    },
    {
      "name": "Cooperstown Dreams Park",
      "latitude": 42.7000,
      "longitude": -74.9300,
      "picture": "dreams_park",
      "rating": 4.2,
      "category": "Attraction",
      "city": "Cooperstown",
      "state": "New York",
      "country": "USA"
    },
    {
      "name": "Strong National Museum of Play",
      "latitude": 43.1525,
      "longitude": -77.6018,
      "picture": "museum_of_play",
      "rating": 4.8,
      "category": "Museum",
      "city": "Rochester",
      "state": "New York",
      "country": "USA"
    },
    {
      "name": "Genesee Country Village & Museum",
      "latitude": 42.9923,
      "longitude": -77.7547,
      "picture": "genesee_village",
      "rating": 4.6,
      "category": "Museum",
      "city": "Mumford",
      "state": "New York",
      "country": "USA"
    },
    {
      "name": "New York State Museum",
      "latitude": 42.6481,
      "longitude": -73.7616,
      "picture": "nys_museum",
      "rating": 4.5,
      "category": "Museum",
      "city": "Albany",
      "state": "New York",
      "country": "USA"
    },
    {
      "name": "Albany Institute of History & Art",
      "latitude": 42.6555,
      "longitude": -73.7603,
      "picture": "albany_institute",
      "rating": 4.4,
      "category": "Museum",
      "city": "Albany",
      "state": "New York",
      "country": "USA"
    },
    {
      "name": "Bethel Woods Center for the Arts",
      "latitude": 41.6978,
      "longitude": -74.8766,
      "picture": "bethel_woods",
      "rating": 4.7,
      "category": "Cultural",
      "city": "Bethel",
      "state": "New York",
      "country": "USA"
    },
    {
      "name": "Saranac Lake",
      "latitude": 44.3295,
      "longitude": -74.1313,
      "picture": "saranac_lake",
      "rating": 4.6,
      "category": "Natural",
      "city": "Saranac Lake",
      "state": "New York",
      "country": "USA"
    },
    {
      "name": "Thousand Islands",
      "latitude": 44.3333,
      "longitude": -76.0000,
      "picture": "thousand_islands",
      "rating": 4.7,
      "category": "Natural",
      "city": "Thousand Islands",
      "state": "New York",
      "country": "USA"
    },
    {
      "name": "Olcott Beach Carousel Park",
      "latitude": 43.3406,
      "longitude": -78.7186,
      "picture": "olcott_carousel",
      "rating": 4.3,
      "category": "Attraction",
      "city": "Olcott",
      "state": "New York",
      "country": "USA"
    },
    {
      "name": "Rosamond Gifford Zoo",
      "latitude": 43.0426,
      "longitude": -76.1805,
      "picture": "syracuse_zoo",
      "rating": 4.5,
      "category": "Zoo",
      "city": "Syracuse",
      "state": "New York",
      "country": "USA"
    },
    {
      "name": "New York Aquarium",
      "latitude": 40.5753,
      "longitude": -73.9759,
      "picture": "ny_aquarium",
      "rating": 4.4,
      "category": "Aquarium",
      "city": "Brooklyn",
      "state": "New York",
      "country": "USA"
    },
    {
      "name": "NYC High Line",
      "latitude": 40.7480,
      "longitude": -74.0048,
      "picture": "high_line",
      "rating": 4.7,
      "category": "Park",
      "city": "New York City",
      "state": "New York",
      "country": "USA"
    },
    {
      "name": "Governors Island",
      "latitude": 40.6895,
      "longitude": -74.0165,
      "picture": "governors_island",
      "rating": 4.6,
      "category": "Park",
      "city": "New York City",
      "state": "New York",
      "country": "USA"
    },
    {
      "name": "Bronx Zoo",
      "latitude": 40.8506,
      "longitude": -73.8788,
      "picture": "bronx_zoo",
      "rating": 4.7,
      "category": "Zoo",
      "city": "Bronx",
      "state": "New York",
      "country": "USA"
    },
    {
      "name": "New York Botanical Garden",
      "latitude": 40.8628,
      "longitude": -73.8775,
      "picture": "ny_botanical",
      "rating": 4.8,
      "category": "Park",
      "city": "Bronx",
      "state": "New York",
      "country": "USA"
    },
    {
      "name": "Yankee Stadium",
      "latitude": 40.8296,
      "longitude": -73.9262,
      "picture": "yankee_stadium",
      "rating": 4.6,
      "category": "Attraction",
      "city": "Bronx",
      "state": "New York",
      "country": "USA"
    },
    {
      "name": "Museum of the Moving Image",
      "latitude": 40.7563,
      "longitude": -73.9239,
      "picture": "moving_image",
      "rating": 4.5,
      "category": "Museum",
      "city": "Astoria",
      "state": "New York",
      "country": "USA"
    },
    {
      "name": "Untermyer Gardens",
      "latitude": 40.9737,
      "longitude": -73.8807,
      "picture": "untermeyer",
      "rating": 4.4,
      "category": "Park",
      "city": "Yonkers",
      "state": "New York",
      "country": "USA"
    },
    {
      "name": "Playland Park",
      "latitude": 40.9659,
      "longitude": -73.6746,
      "picture": "playland",
      "rating": 4.2,
      "category": "Attraction",
      "city": "Rye",
      "state": "New York",
      "country": "USA"
    },
    {
      "name": "Sagamore Hill",
      "latitude": 40.8856,
      "longitude": -73.4976,
      "picture": "sagamore_hill",
      "rating": 4.5,
      "category": "Historical",
      "city": "Oyster Bay",
      "state": "New York",
      "country": "USA"
    }
  ]
}
